,name,lat,lng,district
0,福田红树林生态公园,22.516544,114.046887,福田区
1,皇岗公园,22.523863,114.06455,福田区
2,深圳中心公园,22.558082,114.084904,福田区
3,笔架山公园,22.568123,114.086519,福田区
4,荔枝公园,22.551853,114.109029,福田区
5,莲花山公园,22.559257,114.065193,福田区
6,彩田公园,22.568549,114.071409,福田区
7,市民广场,22.547179,114.06616,福田区
8,梅林山公园,22.56798,114.036586,福田区
9,深圳革命烈士陵园,22.572599,114.075668,福田区
10,禾镰坑水库,22.563054,114.019524,福田区
11,香蜜公园,22.55278,114.028539,福田区
12,深圳国际园林花卉博览园,22.544055,114.009914,福田区
13,深圳市儿童乐园,22.549651,114.017029,福田区
14,翠竹公园,22.570007,114.140833,罗湖区
15,园科公园,22.564309,114.141761,罗湖区
16,深圳仙湖植物园,22.582212,114.182036,罗湖区
17,人民公园,22.55949,114.12365,罗湖区
18,深圳市儿童公园,22.559966,114.130772,罗湖区
19,深圳市围岭公园,22.589951,114.133772,罗湖区
20,罗芳苑,22.553151,114.15406,罗湖区
21,东湖公园,22.569908,114.155375,罗湖区
22,仙桐体育公园,22.566965,114.191506,罗湖区
23,红岗公园,22.582078,114.120845,罗湖区
24,洪湖公园,22.572204,114.12688,罗湖区
25,华侨城国家湿地公园,22.533806,113.989416,南山区
26,燕晗山郊野公园,22.548673,113.991404,南山区
27,荔林公园,22.514615,113.916652,南山区
28,月亮湾公园,22.507011,113.905251,南山区
29,青青世界,22.505034,113.906927,南山区
30,南山公园,22.500143,113.912003,南山区
31,小南山公园,22.49181,113.891606,南山区
32,中山公园,22.553583,113.925318,南山区
33,荔香公园,22.542587,113.936067,南山区
34,前海石公园,22.532339,113.895748,南山区
35,荷兰花卉小镇,22.549784,113.918587,南山区
36,大沙河生态长廊,22.533165,113.961547,南山区
37,侨城北,22.55044,113.995854,南山区
38,欢乐谷,22.547899,113.987186,南山区
39,世界之窗,22.540746,113.979399,南山区
40,深圳湾公园地铁站,22.528505,114.00223,福田区
41,大沙河公园,22.562929,113.968342,南山区
42,石鼓山公园,22.584067,113.956959,南山区
43,松坪山公园,22.564164,113.953899,南山区
44,深圳市水土保持科技示范园,22.599715,113.956696,南山区
45,西丽湖,22.599603,113.97218,南山区
46,深圳野生动物园,22.602101,113.977553,南山区
47,深圳人才公园,22.516327,113.952829,南山区
48,后海滨公园,22.510442,113.943675,南山区
49,科技公园,22.530165,113.95181,南山区
50,文天祥纪念公园,22.481542,113.907271,南山区
51,四海公园,22.501749,113.933514,南山区
52,宋少帝陵,22.486394,113.892963,南山区
53,赤湾左炮台,22.474585,113.89769,南山区
54,烟墩山公园,22.589619,114.278475,盐田区
55,盐田中央公园,22.559063,114.246034,盐田区
56,海山公园(深盐路),22.565973,114.246598,盐田区
57,小梅沙度假村,22.606995,114.333776,盐田区
58,深圳海洋世界海洋广场,22.608595,114.334789,盐田区
59,大梅沙海滨公园,22.598165,114.314017,盐田区
60,深圳宪法公园,22.554212,114.239157,盐田区
61,明珠社区公园,22.598738,114.258353,盐田区
62,石岩湿地公园,22.686284,113.927979,宝安区
63,万丰湖湿地公园-停车场,22.71143,113.833031,宝安区
64,立新湖公园,22.690642,113.827018,宝安区
65,望牛亭(政丰北路),22.679235,113.822901,宝安区
66,翠岗公园,22.670773,113.828132,宝安区
67,深圳沙井公园,22.743088,113.825657,宝安区
68,大王山公园,22.71947,113.815106,宝安区
69,海上田园,22.73204,113.778266,宝安区
70,罗租岭公园,22.681548,113.942839,宝安区
71,8号公寓,22.691114,113.951595,宝安区
72,五指耙公园,22.750311,113.88196,宝安区
73,溪头大球场休闲公园,22.782479,113.840592,宝安区
74,大沙河生态长廊·学院之道,22.600333,113.997867,南山区
75,平峦山公园,22.614543,113.88299,宝安区
76,南昌公园,22.602015,113.847688,宝安区
77,铁仔山公园,22.600843,113.866715,宝安区
78,碧海湾公园,22.590213,113.859334,宝安区
79,西湾红树林湿地公园,22.593597,113.843305,宝安区
80,宝安公园,22.592267,113.909263,宝安区
81,新安公园,22.56938,113.918344,宝安区
82,灵芝公园,22.575571,113.914053,宝安区
83,新桥市民广场,22.729441,113.837566,宝安区
84,大钟山公园,22.725616,113.829607,宝安区
85,嶂背郊野公园,22.700215,114.260884,龙岗区
86,黄金山公园,22.644494,114.071351,龙岗区
87,八仙岭公园,22.722038,114.284191,龙岗区
88,布吉公园-东门,22.611123,114.124298,龙岗区
89,横岗人民公园,22.652708,114.215751,龙岗区
90,横岗文体广场,22.650254,114.201669,龙岗区
91,龙岗区大运公园,22.691806,114.209942,龙岗区
92,龙城公园,22.718987,114.232703,龙岗区
93,龙城广场,22.72415,114.256816,龙岗区
94,龙潭公园,22.729943,114.249268,龙岗区
95,回龙埔公园,22.741996,114.248573,龙岗区
96,天安数码城(福田园区),22.540112,114.038064,福田区
97,龙园公园,22.738049,114.274095,龙岗区
98,红花岭低碳环境生态园,22.753979,114.268974,龙岗区
99,红花岭公园,22.761138,114.256773,龙岗区
100,求水山公园,22.604436,114.150121,龙岗区
102,石芽岭信义体育公园,22.624797,114.14083,龙岗区
103,凤凰山国家矿山公园,22.707593,114.14402,龙岗区
104,鹤鸣公园,22.796205,114.333521,龙岗区
105,乐城公园,22.681368,114.228762,龙岗区
106,观澜河人工湿地公园-北二门,22.689959,114.050737,龙华区
107,龙华公园,22.663545,114.023326,龙华区
108,清湖文化公园,22.674822,114.057292,龙华区
109,白石龙音乐主题公园,22.60303,114.04526,龙华区
110,绿景花园-二期,22.527613,114.049506,福田区
111,南园公园,22.613951,114.041555,龙华区
112,逸秀公园,22.608158,114.040871,龙华区
113,坪山河湿地公园,22.700845,114.380387,坪山区
114,坪山光祖公园,22.741103,114.383843,坪山区
115,五马峰,22.757354,114.415526,坪山区
116,聚龙山生态公园,22.73403,114.397789,坪山区
117,聚龙山湿地生态园,22.717512,114.411765,坪山区
118,横沥镇金牛公园,23.022463,113.96976,
119,燕子岭生态公园,22.704109,114.364619,坪山区
120,坪山公园,22.694206,114.350082,坪山区
121,深圳市坪山区中心公园,22.71398,114.354629,坪山区
122,坪山区中心广场,22.708812,114.355076,坪山区
123,大顶岭山林公园-北门,22.762274,113.969951,光明区
125,光明开明公园,22.755449,113.935636,光明区
126,深圳市华星光电湿地公园,22.751847,113.923019,光明区
127,龙门湿地公园,22.798769,113.834586,宝安区
128,明湖城市公园,22.743608,113.899974,光明区
129,红花山公园,22.787192,113.908056,光明区
130,光明高新园区,22.732494,113.919817,光明区
131,光明新城公园,22.752777,113.946431,光明区
132,时尚生态谷,22.766745,113.97679,光明区
133,光明农科大观园-停车场,22.76378,113.969439,光明区
134,光明滑草游乐园-停车场,22.76189,113.969695,光明区
135,深圳光明高尔夫球会,22.757327,113.969488,光明区
136,回归亭纪念公园,22.762984,113.969155,光明区
137,大顶岭绿道,22.781768,113.964983,
138,翠湖公园,22.771793,113.952481,光明区
139,东周文化公园,22.768639,113.939526,光明区
140,油松滨水公园,22.65357,114.04744,龙华区
141,薯田埔龟山公园,22.782449,113.880696,光明区
142,荔山公园,22.799448,113.962854,光明区
143,罗村水库公园,22.775645,113.97526,光明区
144,石岩湖公寓,22.710819,113.910261,光明区
145,锣鼓山公园,22.59653,114.492747,龙岗区
146,禾塘山水公园,22.645325,114.4259,龙岗区
147,深圳坝光银叶树湿地园,22.653256,114.524648,龙岗区
148,大鹏半岛国家地质公园,22.534094,114.536369,龙岗区
149,枫浪山公园,22.535705,114.503306,龙岗区
150,革命陵园,22.599248,114.528959,龙岗区
151,观音山公园,22.59073,114.463006,龙岗区
152,葵涌公园,22.635198,114.437141,龙岗区
153,深圳沙鱼涌景区-东江纵队北撤纪念亭,22.614152,114.422322,龙岗区
154,玫瑰海岸,22.616625,114.386359,龙岗区
156,前海运动公园,22.521398,113.903422,南山区
157,紫荆园,22.52535,113.909197,南山区
158,凤凰山森林公园-主入口,22.688305,113.856626,宝安区
160,罗田森林公园,22.830066,113.893225,宝安区
161,大雁山公园,22.716519,113.923725,光明区
162,光明森林公园,22.771213,113.974658,光明区
163,园山风景区,22.645088,114.248066,龙岗区
164,观澜湖生态运动公社,22.726625,114.085462,龙华区
165,银湖山郊野公园,22.599435,114.089833,罗湖区
166,布心山公园,22.591691,114.148602,罗湖区
167,广东梧桐山国家森林公园,22.5838,114.221632,罗湖区
168,梧桐山风景名胜区,22.583791,114.221449,罗湖区
169,塘朗山郊野公园-龙珠门,22.570716,113.988968,南山区
170,深圳梅林山郊野径,22.581661,114.049784,福田区
171,阳台山森林公园,22.657618,113.97127,龙华区
172,马峦山郊野公园,22.650439,114.332247,坪山区
173,松子坑森林公园,22.729104,114.368488,坪山区
174,三洲田,22.639037,114.282167,盐田区
175,茅洲河,22.766128,113.834699,宝安区
176,平湖生态园,22.680337,114.117274,龙岗区
177,章阁城市公园,22.749189,114.018502,龙华区
178,樟坑径城市公园,22.686003,114.088045,龙华区
179,锦绣中华民俗村,22.537532,113.994768,南山区
180,深圳湾公园,22.52837,114.003481,福田区
181,东部华侨城,22.632275,114.294924,盐田区
